[
    {
        "fullname":"长安区",
        "id":"130102",
        "location":{
            "lat":38.036819999999999,
            "lng":114.538955
        }
    },
    {
        "fullname":"桥西区",
        "id":"130104",
        "location":{
            "lat":38.025224000000001,
            "lng":114.44992499999999
        }
    },
    {
        "fullname":"新华区",
        "id":"130105",
        "location":{
            "lat":38.050749000000003,
            "lng":114.463904
        }
    },
    {
        "fullname":"井陉矿区",
        "id":"130107",
        "location":{
            "lat":38.065446000000001,
            "lng":114.062258
        }
    },
    {
        "fullname":"裕华区",
        "id":"130108",
        "location":{
            "lat":38.007002,
            "lng":114.531599
        }
    },
    {
        "fullname":"藁城区",
        "id":"130109",
        "location":{
            "lat":38.022176999999999,
            "lng":114.84656200000001
        }
    },
    {
        "fullname":"鹿泉区",
        "id":"130110",
        "location":{
            "lat":38.086536000000002,
            "lng":114.313559
        }
    },
    {
        "fullname":"栾城区",
        "id":"130111",
        "location":{
            "lat":37.900914999999998,
            "lng":114.64792199999999
        }
    },
    {
        "fullname":"井陉县",
        "id":"130121",
        "location":{
            "lat":38.032366000000003,
            "lng":114.145669
        }
    },
    {
        "fullname":"正定县",
        "id":"130123",
        "location":{
            "lat":38.146990000000002,
            "lng":114.57043
        }
    },
    {
        "fullname":"行唐县",
        "id":"130125",
        "location":{
            "lat":38.437534999999997,
            "lng":114.553044
        }
    },
    {
        "fullname":"灵寿县",
        "id":"130126",
        "location":{
            "lat":38.307907999999998,
            "lng":114.38301300000001
        }
    },
    {
        "fullname":"高邑县",
        "id":"130127",
        "location":{
            "lat":37.615904999999998,
            "lng":114.611659
        }
    },
    {
        "fullname":"深泽县",
        "id":"130128",
        "location":{
            "lat":38.184572000000003,
            "lng":115.20089
        }
    },
    {
        "fullname":"赞皇县",
        "id":"130129",
        "location":{
            "lat":37.666549000000003,
            "lng":114.38611400000001
        }
    },
    {
        "fullname":"无极县",
        "id":"130130",
        "location":{
            "lat":38.178851999999999,
            "lng":114.97625600000001
        }
    },
    {
        "fullname":"平山县",
        "id":"130131",
        "location":{
            "lat":38.260311999999999,
            "lng":114.18598799999999
        }
    },
    {
        "fullname":"元氏县",
        "id":"130132",
        "location":{
            "lat":37.767332000000003,
            "lng":114.525508
        }
    },
    {
        "fullname":"赵县",
        "id":"130133",
        "location":{
            "lat":37.756934999999999,
            "lng":114.775914
        }
    },
    {
        "fullname":"辛集市",
        "id":"130181",
        "location":{
            "lat":37.943238999999998,
            "lng":115.217626
        }
    },
    {
        "fullname":"晋州市",
        "id":"130183",
        "location":{
            "lat":38.034363999999997,
            "lng":115.044268
        }
    },
    {
        "fullname":"新乐市",
        "id":"130184",
        "location":{
            "lat":38.343952000000002,
            "lng":114.683745
        }
    },
    {
        "fullname":"路南区",
        "id":"130202",
        "location":{
            "lat":39.624988000000002,
            "lng":118.154348
        }
    },
    {
        "fullname":"路北区",
        "id":"130203",
        "location":{
            "lat":39.625078999999999,
            "lng":118.20108500000001
        }
    },
    {
        "fullname":"古冶区",
        "id":"130204",
        "location":{
            "lat":39.733919999999998,
            "lng":118.44713400000001
        }
    },
    {
        "fullname":"开平区",
        "id":"130205",
        "location":{
            "lat":39.671633999999997,
            "lng":118.262246
        }
    },
    {
        "fullname":"丰南区",
        "id":"130207",
        "location":{
            "lat":39.575885,
            "lng":118.084985
        }
    },
    {
        "fullname":"丰润区",
        "id":"130208",
        "location":{
            "lat":39.832918999999997,
            "lng":118.162426
        }
    },
    {
        "fullname":"曹妃甸区",
        "id":"130209",
        "location":{
            "lat":39.273527999999999,
            "lng":118.46019699999999
        }
    },
    {
        "fullname":"滦南县",
        "id":"130224",
        "location":{
            "lat":39.520271999999999,
            "lng":118.68362999999999
        }
    },
    {
        "fullname":"乐亭县",
        "id":"130225",
        "location":{
            "lat":39.425747999999999,
            "lng":118.91245000000001
        }
    },
    {
        "fullname":"迁西县",
        "id":"130227",
        "location":{
            "lat":40.141862000000003,
            "lng":118.314646
        }
    },
    {
        "fullname":"玉田县",
        "id":"130229",
        "location":{
            "lat":39.901826999999997,
            "lng":117.738196
        }
    },
    {
        "fullname":"芦台经济开发区",
        "id":"130271",
        "location":{
            "lat":39.380951000000003,
            "lng":117.747379
        }
    },
    {
        "fullname":"遵化市",
        "id":"130281",
        "location":{
            "lat":40.189118999999998,
            "lng":117.965878
        }
    },
    {
        "fullname":"迁安市",
        "id":"130283",
        "location":{
            "lat":39.998860999999998,
            "lng":118.701021
        }
    },
    {
        "fullname":"滦州市",
        "id":"130284",
        "location":{
            "lat":39.740963000000001,
            "lng":118.70301000000001
        }
    },
    {
        "fullname":"海港区",
        "id":"130302",
        "location":{
            "lat":39.948461999999999,
            "lng":119.5643
        }
    },
    {
        "fullname":"山海关区",
        "id":"130303",
        "location":{
            "lat":39.978881999999999,
            "lng":119.775187
        }
    },
    {
        "fullname":"北戴河区",
        "id":"130304",
        "location":{
            "lat":39.834912000000003,
            "lng":119.48448999999999
        }
    },
    {
        "fullname":"抚宁区",
        "id":"130306",
        "location":{
            "lat":39.876213999999997,
            "lng":119.24560700000001
        }
    },
    {
        "fullname":"青龙满族自治县",
        "id":"130321",
        "location":{
            "lat":40.407473000000003,
            "lng":118.94985
        }
    },
    {
        "fullname":"昌黎县",
        "id":"130322",
        "location":{
            "lat":39.699677000000001,
            "lng":119.19984599999999
        }
    },
    {
        "fullname":"卢龙县",
        "id":"130324",
        "location":{
            "lat":39.892564,
            "lng":118.891931
        }
    },
    {
        "fullname":"邯山区",
        "id":"130402",
        "location":{
            "lat":36.594569999999997,
            "lng":114.53106200000001
        }
    },
    {
        "fullname":"丛台区",
        "id":"130403",
        "location":{
            "lat":36.636434000000001,
            "lng":114.492875
        }
    },
    {
        "fullname":"复兴区",
        "id":"130404",
        "location":{
            "lat":36.639085999999999,
            "lng":114.462287
        }
    },
    {
        "fullname":"峰峰矿区",
        "id":"130406",
        "location":{
            "lat":36.419297999999998,
            "lng":114.212571
        }
    },
    {
        "fullname":"肥乡区",
        "id":"130407",
        "location":{
            "lat":36.548544999999997,
            "lng":114.80019900000001
        }
    },
    {
        "fullname":"永年区",
        "id":"130408",
        "location":{
            "lat":36.770575999999998,
            "lng":114.496775
        }
    },
    {
        "fullname":"临漳县",
        "id":"130423",
        "location":{
            "lat":36.322504000000002,
            "lng":114.585514
        }
    },
    {
        "fullname":"成安县",
        "id":"130424",
        "location":{
            "lat":36.445331000000003,
            "lng":114.67009400000001
        }
    },
    {
        "fullname":"大名县",
        "id":"130425",
        "location":{
            "lat":36.286405999999999,
            "lng":115.14798500000001
        }
    },
    {
        "fullname":"涉县",
        "id":"130426",
        "location":{
            "lat":36.586072999999999,
            "lng":113.69215699999999
        }
    },
    {
        "fullname":"磁县",
        "id":"130427",
        "location":{
            "lat":36.375070000000001,
            "lng":114.373965
        }
    },
    {
        "fullname":"邱县",
        "id":"130430",
        "location":{
            "lat":36.811782999999998,
            "lng":115.20004900000001
        }
    },
    {
        "fullname":"鸡泽县",
        "id":"130431",
        "location":{
            "lat":36.911524999999997,
            "lng":114.889951
        }
    },
    {
        "fullname":"广平县",
        "id":"130432",
        "location":{
            "lat":36.483820000000001,
            "lng":114.948638
        }
    },
    {
        "fullname":"馆陶县",
        "id":"130433",
        "location":{
            "lat":36.548295000000003,
            "lng":115.281818
        }
    },
    {
        "fullname":"魏县",
        "id":"130434",
        "location":{
            "lat":36.359259999999999,
            "lng":114.939217
        }
    },
    {
        "fullname":"曲周县",
        "id":"130435",
        "location":{
            "lat":36.766347000000003,
            "lng":114.957549
        }
    },
    {
        "fullname":"武安市",
        "id":"130481",
        "location":{
            "lat":36.697268999999999,
            "lng":114.20343200000001
        }
    },
    {
        "fullname":"襄都区",
        "id":"130502",
        "location":{
            "lat":37.071314000000001,
            "lng":114.50744299999999
        }
    },
    {
        "fullname":"信都区",
        "id":"130503",
        "location":{
            "lat":37.093798,
            "lng":114.46822899999999
        }
    },
    {
        "fullname":"任泽区",
        "id":"130505",
        "location":{
            "lat":37.121957999999999,
            "lng":114.671339
        }
    },
    {
        "fullname":"南和区",
        "id":"130506",
        "location":{
            "lat":37.005625999999999,
            "lng":114.683683
        }
    },
    {
        "fullname":"临城县",
        "id":"130522",
        "location":{
            "lat":37.444512000000003,
            "lng":114.498651
        }
    },
    {
        "fullname":"内丘县",
        "id":"130523",
        "location":{
            "lat":37.287612000000003,
            "lng":114.512226
        }
    },
    {
        "fullname":"柏乡县",
        "id":"130524",
        "location":{
            "lat":37.482880000000002,
            "lng":114.69344700000001
        }
    },
    {
        "fullname":"隆尧县",
        "id":"130525",
        "location":{
            "lat":37.351232000000003,
            "lng":114.770509
        }
    },
    {
        "fullname":"宁晋县",
        "id":"130528",
        "location":{
            "lat":37.624524000000001,
            "lng":114.940006
        }
    },
    {
        "fullname":"巨鹿县",
        "id":"130529",
        "location":{
            "lat":37.221293000000003,
            "lng":115.03788400000001
        }
    },
    {
        "fullname":"新河县",
        "id":"130530",
        "location":{
            "lat":37.520890999999999,
            "lng":115.25100500000001
        }
    },
    {
        "fullname":"广宗县",
        "id":"130531",
        "location":{
            "lat":37.074795000000002,
            "lng":115.14276599999999
        }
    },
    {
        "fullname":"平乡县",
        "id":"130532",
        "location":{
            "lat":37.063771000000003,
            "lng":115.03008
        }
    },
    {
        "fullname":"威县",
        "id":"130533",
        "location":{
            "lat":36.975163999999999,
            "lng":115.266829
        }
    },
    {
        "fullname":"清河县",
        "id":"130534",
        "location":{
            "lat":37.046000999999997,
            "lng":115.665042
        }
    },
    {
        "fullname":"临西县",
        "id":"130535",
        "location":{
            "lat":36.871312000000003,
            "lng":115.50125800000001
        }
    },
    {
        "fullname":"南宫市",
        "id":"130581",
        "location":{
            "lat":37.358907000000002,
            "lng":115.40866
        }
    },
    {
        "fullname":"沙河市",
        "id":"130582",
        "location":{
            "lat":36.855547999999999,
            "lng":114.503023
        }
    },
    {
        "fullname":"竞秀区",
        "id":"130602",
        "location":{
            "lat":38.877318000000002,
            "lng":115.458671
        }
    },
    {
        "fullname":"莲池区",
        "id":"130606",
        "location":{
            "lat":38.883527999999998,
            "lng":115.497153
        }
    },
    {
        "fullname":"满城区",
        "id":"130607",
        "location":{
            "lat":38.949731999999997,
            "lng":115.32224600000001
        }
    },
    {
        "fullname":"清苑区",
        "id":"130608",
        "location":{
            "lat":38.765270000000001,
            "lng":115.48988
        }
    },
    {
        "fullname":"徐水区",
        "id":"130609",
        "location":{
            "lat":39.018780999999997,
            "lng":115.655772
        }
    },
    {
        "fullname":"涞水县",
        "id":"130623",
        "location":{
            "lat":39.394471000000003,
            "lng":115.713886
        }
    },
    {
        "fullname":"阜平县",
        "id":"130624",
        "location":{
            "lat":38.849781,
            "lng":114.195103
        }
    },
    {
        "fullname":"定兴县",
        "id":"130626",
        "location":{
            "lat":39.263218999999999,
            "lng":115.808183
        }
    },
    {
        "fullname":"唐县",
        "id":"130627",
        "location":{
            "lat":38.748477000000001,
            "lng":114.982968
        }
    },
    {
        "fullname":"高阳县",
        "id":"130628",
        "location":{
            "lat":38.700845999999999,
            "lng":115.779149
        }
    },
    {
        "fullname":"容城县",
        "id":"130629",
        "location":{
            "lat":39.043320999999999,
            "lng":115.86163500000001
        }
    },
    {
        "fullname":"涞源县",
        "id":"130630",
        "location":{
            "lat":39.360621999999999,
            "lng":114.694416
        }
    },
    {
        "fullname":"望都县",
        "id":"130631",
        "location":{
            "lat":38.696221000000001,
            "lng":115.15542000000001
        }
    },
    {
        "fullname":"安新县",
        "id":"130632",
        "location":{
            "lat":38.936101999999998,
            "lng":115.935688
        }
    },
    {
        "fullname":"易县",
        "id":"130633",
        "location":{
            "lat":39.350219000000003,
            "lng":115.49748700000001
        }
    },
    {
        "fullname":"曲阳县",
        "id":"130634",
        "location":{
            "lat":38.614409000000002,
            "lng":114.740476
        }
    },
    {
        "fullname":"蠡县",
        "id":"130635",
        "location":{
            "lat":38.488064000000001,
            "lng":115.583701
        }
    },
    {
        "fullname":"顺平县",
        "id":"130636",
        "location":{
            "lat":38.837988000000003,
            "lng":115.135133
        }
    },
    {
        "fullname":"博野县",
        "id":"130637",
        "location":{
            "lat":38.458047999999998,
            "lng":115.46429500000001
        }
    },
    {
        "fullname":"雄县",
        "id":"130638",
        "location":{
            "lat":38.994824999999999,
            "lng":116.10862400000001
        }
    },
    {
        "fullname":"涿州市",
        "id":"130681",
        "location":{
            "lat":39.485683999999999,
            "lng":115.97444
        }
    },
    {
        "fullname":"定州市",
        "id":"130682",
        "location":{
            "lat":38.516745999999998,
            "lng":114.99032099999999
        }
    },
    {
        "fullname":"安国市",
        "id":"130683",
        "location":{
            "lat":38.418984999999999,
            "lng":115.327088
        }
    },
    {
        "fullname":"高碑店市",
        "id":"130684",
        "location":{
            "lat":39.327233,
            "lng":115.87361199999999
        }
    },
    {
        "fullname":"桥东区",
        "id":"130702",
        "location":{
            "lat":40.788471999999999,
            "lng":114.894114
        }
    },
    {
        "fullname":"桥西区",
        "id":"130703",
        "location":{
            "lat":40.819552999999999,
            "lng":114.868604
        }
    },
    {
        "fullname":"宣化区",
        "id":"130705",
        "location":{
            "lat":40.609444000000003,
            "lng":115.099515
        }
    },
    {
        "fullname":"下花园区",
        "id":"130706",
        "location":{
            "lat":40.502628000000001,
            "lng":115.287127
        }
    },
    {
        "fullname":"万全区",
        "id":"130708",
        "location":{
            "lat":40.767377000000003,
            "lng":114.740584
        }
    },
    {
        "fullname":"崇礼区",
        "id":"130709",
        "location":{
            "lat":40.974741000000002,
            "lng":115.28234500000001
        }
    },
    {
        "fullname":"张北县",
        "id":"130722",
        "location":{
            "lat":41.159039,
            "lng":114.719927
        }
    },
    {
        "fullname":"康保县",
        "id":"130723",
        "location":{
            "lat":41.853015999999997,
            "lng":114.60017999999999
        }
    },
    {
        "fullname":"沽源县",
        "id":"130724",
        "location":{
            "lat":41.670496999999997,
            "lng":115.68854399999999
        }
    },
    {
        "fullname":"尚义县",
        "id":"130725",
        "location":{
            "lat":41.076588000000001,
            "lng":113.968763
        }
    },
    {
        "fullname":"蔚县",
        "id":"130726",
        "location":{
            "lat":39.840153999999998,
            "lng":114.589136
        }
    },
    {
        "fullname":"阳原县",
        "id":"130727",
        "location":{
            "lat":40.104303000000002,
            "lng":114.150267
        }
    },
    {
        "fullname":"怀安县",
        "id":"130728",
        "location":{
            "lat":40.675269999999998,
            "lng":114.386488
        }
    },
    {
        "fullname":"怀来县",
        "id":"130730",
        "location":{
            "lat":40.415624999999999,
            "lng":115.51786800000001
        }
    },
    {
        "fullname":"涿鹿县",
        "id":"130731",
        "location":{
            "lat":40.382680999999998,
            "lng":115.19683499999999
        }
    },
    {
        "fullname":"赤城县",
        "id":"130732",
        "location":{
            "lat":40.913347999999999,
            "lng":115.831256
        }
    },
    {
        "fullname":"双桥区",
        "id":"130802",
        "location":{
            "lat":40.974679000000002,
            "lng":117.943121
        }
    },
    {
        "fullname":"双滦区",
        "id":"130803",
        "location":{
            "lat":40.959485000000001,
            "lng":117.799419
        }
    },
    {
        "fullname":"鹰手营子矿区",
        "id":"130804",
        "location":{
            "lat":40.546087,
            "lng":117.65937599999999
        }
    },
    {
        "fullname":"承德县",
        "id":"130821",
        "location":{
            "lat":40.768082,
            "lng":118.174166
        }
    },
    {
        "fullname":"兴隆县",
        "id":"130822",
        "location":{
            "lat":40.417374000000002,
            "lng":117.500945
        }
    },
    {
        "fullname":"滦平县",
        "id":"130824",
        "location":{
            "lat":40.941643999999997,
            "lng":117.332652
        }
    },
    {
        "fullname":"隆化县",
        "id":"130825",
        "location":{
            "lat":41.314402000000001,
            "lng":117.739026
        }
    },
    {
        "fullname":"丰宁满族自治县",
        "id":"130826",
        "location":{
            "lat":41.209950999999997,
            "lng":116.645798
        }
    },
    {
        "fullname":"宽城满族自治县",
        "id":"130827",
        "location":{
            "lat":40.611663,
            "lng":118.485021
        }
    },
    {
        "fullname":"围场满族蒙古族自治县",
        "id":"130828",
        "location":{
            "lat":41.938372000000001,
            "lng":117.75933999999999
        }
    },
    {
        "fullname":"平泉市",
        "id":"130881",
        "location":{
            "lat":41.018481999999999,
            "lng":118.702032
        }
    },
    {
        "fullname":"新华区",
        "id":"130902",
        "location":{
            "lat":38.314093999999997,
            "lng":116.866309
        }
    },
    {
        "fullname":"运河区",
        "id":"130903",
        "location":{
            "lat":38.283456000000001,
            "lng":116.84296399999999
        }
    },
    {
        "fullname":"沧县",
        "id":"130921",
        "location":{
            "lat":38.198116579699999,
            "lng":116.7844677172
        }
    },
    {
        "fullname":"青县",
        "id":"130922",
        "location":{
            "lat":38.583657000000002,
            "lng":116.804137
        }
    },
    {
        "fullname":"东光县",
        "id":"130923",
        "location":{
            "lat":37.888843999999999,
            "lng":116.537138
        }
    },
    {
        "fullname":"海兴县",
        "id":"130924",
        "location":{
            "lat":38.143307999999998,
            "lng":117.497545
        }
    },
    {
        "fullname":"盐山县",
        "id":"130925",
        "location":{
            "lat":38.058073999999998,
            "lng":117.230681
        }
    },
    {
        "fullname":"肃宁县",
        "id":"130926",
        "location":{
            "lat":38.423043999999997,
            "lng":115.82961899999999
        }
    },
    {
        "fullname":"南皮县",
        "id":"130927",
        "location":{
            "lat":38.038761000000001,
            "lng":116.708603
        }
    },
    {
        "fullname":"吴桥县",
        "id":"130928",
        "location":{
            "lat":37.628225,
            "lng":116.39155700000001
        }
    },
    {
        "fullname":"献县",
        "id":"130929",
        "location":{
            "lat":38.231479,
            "lng":116.370295
        }
    },
    {
        "fullname":"孟村回族自治县",
        "id":"130930",
        "location":{
            "lat":38.053438,
            "lng":117.10451399999999
        }
    },
    {
        "fullname":"泊头市",
        "id":"130981",
        "location":{
            "lat":38.084262000000003,
            "lng":116.578322
        }
    },
    {
        "fullname":"任丘市",
        "id":"130982",
        "location":{
            "lat":38.685324999999999,
            "lng":116.084412
        }
    },
    {
        "fullname":"黄骅市",
        "id":"130983",
        "location":{
            "lat":38.372266000000003,
            "lng":117.330043
        }
    },
    {
        "fullname":"河间市",
        "id":"130984",
        "location":{
            "lat":38.446655999999997,
            "lng":116.099362
        }
    },
    {
        "fullname":"安次区",
        "id":"131002",
        "location":{
            "lat":39.491522000000003,
            "lng":116.709127
        }
    },
    {
        "fullname":"广阳区",
        "id":"131003",
        "location":{
            "lat":39.523429999999998,
            "lng":116.710667
        }
    },
    {
        "fullname":"固安县",
        "id":"131022",
        "location":{
            "lat":39.438797000000001,
            "lng":116.29869600000001
        }
    },
    {
        "fullname":"永清县",
        "id":"131023",
        "location":{
            "lat":39.330983000000003,
            "lng":116.50608
        }
    },
    {
        "fullname":"香河县",
        "id":"131024",
        "location":{
            "lat":39.763922999999998,
            "lng":117.006158
        }
    },
    {
        "fullname":"大城县",
        "id":"131025",
        "location":{
            "lat":38.705232000000002,
            "lng":116.65391700000001
        }
    },
    {
        "fullname":"文安县",
        "id":"131026",
        "location":{
            "lat":38.873652999999997,
            "lng":116.45789600000001
        }
    },
    {
        "fullname":"大厂回族自治县",
        "id":"131028",
        "location":{
            "lat":39.886569000000001,
            "lng":116.98961
        }
    },
    {
        "fullname":"霸州市",
        "id":"131081",
        "location":{
            "lat":39.125238000000003,
            "lng":116.391488
        }
    },
    {
        "fullname":"三河市",
        "id":"131082",
        "location":{
            "lat":39.982933000000003,
            "lng":117.07826900000001
        }
    },
    {
        "fullname":"桃城区",
        "id":"131102",
        "location":{
            "lat":37.735151999999999,
            "lng":115.675208
        }
    },
    {
        "fullname":"冀州区",
        "id":"131103",
        "location":{
            "lat":37.550922,
            "lng":115.579392
        }
    },
    {
        "fullname":"枣强县",
        "id":"131121",
        "location":{
            "lat":37.514217000000002,
            "lng":115.72436500000001
        }
    },
    {
        "fullname":"武邑县",
        "id":"131122",
        "location":{
            "lat":37.802036000000001,
            "lng":115.88749799999999
        }
    },
    {
        "fullname":"武强县",
        "id":"131123",
        "location":{
            "lat":38.041446999999998,
            "lng":115.982119
        }
    },
    {
        "fullname":"饶阳县",
        "id":"131124",
        "location":{
            "lat":38.235312999999998,
            "lng":115.725898
        }
    },
    {
        "fullname":"安平县",
        "id":"131125",
        "location":{
            "lat":38.234769,
            "lng":115.518918
        }
    },
    {
        "fullname":"故城县",
        "id":"131126",
        "location":{
            "lat":37.347873,
            "lng":115.96587700000001
        }
    },
    {
        "fullname":"景县",
        "id":"131127",
        "location":{
            "lat":37.692830999999998,
            "lng":116.27055799999999
        }
    },
    {
        "fullname":"阜城县",
        "id":"131128",
        "location":{
            "lat":37.862983999999997,
            "lng":116.17542400000001
        }
    },
    {
        "fullname":"深州市",
        "id":"131182",
        "location":{
            "lat":38.001340999999996,
            "lng":115.559757
        }
    },
    {
        "fullname":"小店区",
        "id":"140105",
        "location":{
            "lat":37.736865000000002,
            "lng":112.565524
        }
    },
    {
        "fullname":"迎泽区",
        "id":"140106",
        "location":{
            "lat":37.863345000000002,
            "lng":112.563412
        }
    },
    {
        "fullname":"杏花岭区",
        "id":"140107",
        "location":{
            "lat":37.894241000000001,
            "lng":112.570412
        }
    },
    {
        "fullname":"尖草坪区",
        "id":"140108",
        "location":{
            "lat":37.940052000000001,
            "lng":112.486141
        }
    },
    {
        "fullname":"万柏林区",
        "id":"140109",
        "location":{
            "lat":37.859738,
            "lng":112.515638
        }
    },
    {
        "fullname":"晋源区",
        "id":"140110",
        "location":{
            "lat":37.715519,
            "lng":112.477869
        }
    },
    {
        "fullname":"清徐县",
        "id":"140121",
        "location":{
            "lat":37.608750999999998,
            "lng":112.35936700000001
        }
    },
    {
        "fullname":"阳曲县",
        "id":"140122",
        "location":{
            "lat":38.058511000000003,
            "lng":112.67292
        }
    },
    {
        "fullname":"娄烦县",
        "id":"140123",
        "location":{
            "lat":38.067568999999999,
            "lng":111.79715
        }
    },
    {
        "fullname":"古交市",
        "id":"140181",
        "location":{
            "lat":37.907414000000003,
            "lng":112.175034
        }
    },
    {
        "fullname":"新荣区",
        "id":"140212",
        "location":{
            "lat":40.256354999999999,
            "lng":113.139628
        }
    },
    {
        "fullname":"平城区",
        "id":"140213",
        "location":{
            "lat":40.075246,
            "lng":113.298011
        }
    },
    {
        "fullname":"云冈区",
        "id":"140214",
        "location":{
            "lat":40.004885000000002,
            "lng":113.14957200000001
        }
    },
    {
        "fullname":"云州区",
        "id":"140215",
        "location":{
            "lat":40.040903999999998,
            "lng":113.61237199999999
        }
    },
    {
        "fullname":"阳高县",
        "id":"140221",
        "location":{
            "lat":40.360526999999998,
            "lng":113.749506
        }
    },
    {
        "fullname":"天镇县",
        "id":"140222",
        "location":{
            "lat":40.420870000000001,
            "lng":114.09087100000001
        }
    },
    {
        "fullname":"广灵县",
        "id":"140223",
        "location":{
            "lat":39.760404000000001,
            "lng":114.282703
        }
    },
    {
        "fullname":"灵丘县",
        "id":"140224",
        "location":{
            "lat":39.442464999999999,
            "lng":114.234512
        }
    },
    {
        "fullname":"浑源县",
        "id":"140225",
        "location":{
            "lat":39.706491999999997,
            "lng":113.691822
        }
    },
    {
        "fullname":"左云县",
        "id":"140226",
        "location":{
            "lat":40.014505999999997,
            "lng":112.703334
        }
    },
    {
        "fullname":"城区",
        "id":"140302",
        "location":{
            "lat":37.847456999999999,
            "lng":113.600694
        }
    },
    {
        "fullname":"矿区",
        "id":"140303",
        "location":{
            "lat":37.868493999999998,
            "lng":113.555279
        }
    },
    {
        "fullname":"郊区",
        "id":"140311",
        "location":{
            "lat":37.943702999999999,
            "lng":113.593998
        }
    },
    {
        "fullname":"平定县",
        "id":"140321",
        "location":{
            "lat":37.804986,
            "lng":113.629777
        }
    },
    {
        "fullname":"盂县",
        "id":"140322",
        "location":{
            "lat":38.086041000000002,
            "lng":113.412279
        }
    },
    {
        "fullname":"潞州区",
        "id":"140403",
        "location":{
            "lat":36.203282999999999,
            "lng":113.122749
        }
    },
    {
        "fullname":"上党区",
        "id":"140404",
        "location":{
            "lat":36.053151999999997,
            "lng":113.051348
        }
    },
    {
        "fullname":"屯留区",
        "id":"140405",
        "location":{
            "lat":36.316200000000002,
            "lng":112.892301
        }
    },
    {
        "fullname":"潞城区",
        "id":"140406",
        "location":{
            "lat":36.334597000000002,
            "lng":113.228897
        }
    },
    {
        "fullname":"襄垣县",
        "id":"140423",
        "location":{
            "lat":36.535629,
            "lng":113.051298
        }
    },
    {
        "fullname":"平顺县",
        "id":"140425",
        "location":{
            "lat":36.200369999999999,
            "lng":113.43585899999999
        }
    },
    {
        "fullname":"黎城县",
        "id":"140426",
        "location":{
            "lat":36.502251999999999,
            "lng":113.387165
        }
    },
    {
        "fullname":"壶关县",
        "id":"140427",
        "location":{
            "lat":36.115645000000001,
            "lng":113.206836
        }
    },
    {
        "fullname":"长子县",
        "id":"140428",
        "location":{
            "lat":36.122258000000002,
            "lng":112.877922
        }
    },
    {
        "fullname":"武乡县",
        "id":"140429",
        "location":{
            "lat":36.837865000000001,
            "lng":112.86396000000001
        }
    },
    {
        "fullname":"沁县",
        "id":"140430",
        "location":{
            "lat":36.756152,
            "lng":112.69917599999999
        }
    },
    {
        "fullname":"沁源县",
        "id":"140431",
        "location":{
            "lat":36.499988999999999,
            "lng":112.337726
        }
    },
    {
        "fullname":"城区",
        "id":"140502",
        "location":{
            "lat":35.502479999999998,
            "lng":112.853452
        }
    },
    {
        "fullname":"沁水县",
        "id":"140521",
        "location":{
            "lat":35.690119000000003,
            "lng":112.18672599999999
        }
    },
    {
        "fullname":"阳城县",
        "id":"140522",
        "location":{
            "lat":35.486274999999999,
            "lng":112.414798
        }
    },
    {
        "fullname":"陵川县",
        "id":"140524",
        "location":{
            "lat":35.775238999999999,
            "lng":113.280755
        }
    },
    {
        "fullname":"泽州县",
        "id":"140525",
        "location":{
            "lat":35.507061,
            "lng":112.92224299999999
        }
    },
    {
        "fullname":"高平市",
        "id":"140581",
        "location":{
            "lat":35.798774999999999,
            "lng":112.92379800000001
        }
    },
    {
        "fullname":"朔城区",
        "id":"140602",
        "location":{
            "lat":39.320196000000003,
            "lng":112.43207099999999
        }
    },
    {
        "fullname":"平鲁区",
        "id":"140603",
        "location":{
            "lat":39.512219000000002,
            "lng":112.28827
        }
    },
    {
        "fullname":"山阴县",
        "id":"140621",
        "location":{
            "lat":39.527445,
            "lng":112.81642100000001
        }
    },
    {
        "fullname":"应县",
        "id":"140622",
        "location":{
            "lat":39.554470999999999,
            "lng":113.190952
        }
    },
    {
        "fullname":"右玉县",
        "id":"140623",
        "location":{
            "lat":39.989198000000002,
            "lng":112.466926
        }
    },
    {
        "fullname":"怀仁市",
        "id":"140681",
        "location":{
            "lat":39.820521999999997,
            "lng":113.133061
        }
    },
    {
        "fullname":"榆次区",
        "id":"140702",
        "location":{
            "lat":37.698636999999998,
            "lng":112.707564
        }
    },
    {
        "fullname":"太谷区",
        "id":"140703",
        "location":{
            "lat":37.421759999999999,
            "lng":112.551264
        }
    },
    {
        "fullname":"榆社县",
        "id":"140721",
        "location":{
            "lat":37.071209000000003,
            "lng":112.97537800000001
        }
    },
    {
        "fullname":"左权县",
        "id":"140722",
        "location":{
            "lat":37.082746,
            "lng":113.379412
        }
    },
    {
        "fullname":"和顺县",
        "id":"140723",
        "location":{
            "lat":37.329695999999998,
            "lng":113.570295
        }
    },
    {
        "fullname":"昔阳县",
        "id":"140724",
        "location":{
            "lat":37.612577000000002,
            "lng":113.707151
        }
    },
    {
        "fullname":"寿阳县",
        "id":"140725",
        "location":{
            "lat":37.895408000000003,
            "lng":113.176847
        }
    },
    {
        "fullname":"祁县",
        "id":"140727",
        "location":{
            "lat":37.358424999999997,
            "lng":112.33522600000001
        }
    },
    {
        "fullname":"平遥县",
        "id":"140728",
        "location":{
            "lat":37.189613999999999,
            "lng":112.175825
        }
    },
    {
        "fullname":"灵石县",
        "id":"140729",
        "location":{
            "lat":36.848084999999998,
            "lng":111.77869200000001
        }
    },
    {
        "fullname":"介休市",
        "id":"140781",
        "location":{
            "lat":37.027538,
            "lng":111.916451
        }
    },
    {
        "fullname":"盐湖区",
        "id":"140802",
        "location":{
            "lat":35.015549,
            "lng":110.998135
        }
    },
    {
        "fullname":"临猗县",
        "id":"140821",
        "location":{
            "lat":35.144347000000003,
            "lng":110.774035
        }
    },
    {
        "fullname":"万荣县",
        "id":"140822",
        "location":{
            "lat":35.415804999999999,
            "lng":110.837957
        }
    },
    {
        "fullname":"闻喜县",
        "id":"140823",
        "location":{
            "lat":35.356664000000002,
            "lng":111.224485
        }
    },
    {
        "fullname":"稷山县",
        "id":"140824",
        "location":{
            "lat":35.604514999999999,
            "lng":110.983273
        }
    },
    {
        "fullname":"新绛县",
        "id":"140825",
        "location":{
            "lat":35.616007000000003,
            "lng":111.224767
        }
    },
    {
        "fullname":"绛县",
        "id":"140826",
        "location":{
            "lat":35.491522000000003,
            "lng":111.567842
        }
    },
    {
        "fullname":"垣曲县",
        "id":"140827",
        "location":{
            "lat":35.298296999999998,
            "lng":111.670215
        }
    },
    {
        "fullname":"夏县",
        "id":"140828",
        "location":{
            "lat":35.140732999999997,
            "lng":111.21994599999999
        }
    },
    {
        "fullname":"平陆县",
        "id":"140829",
        "location":{
            "lat":34.829594999999998,
            "lng":111.193957
        }
    },
    {
        "fullname":"芮城县",
        "id":"140830",
        "location":{
            "lat":34.694172999999999,
            "lng":110.694418
        }
    },
    {
        "fullname":"永济市",
        "id":"140881",
        "location":{
            "lat":34.866498999999997,
            "lng":110.447771
        }
    },
    {
        "fullname":"河津市",
        "id":"140882",
        "location":{
            "lat":35.596356999999998,
            "lng":110.71203199999999
        }
    },
    {
        "fullname":"忻府区",
        "id":"140902",
        "location":{
            "lat":38.403497999999999,
            "lng":112.746357
        }
    },
    {
        "fullname":"定襄县",
        "id":"140921",
        "location":{
            "lat":38.471724999999999,
            "lng":112.957234
        }
    },
    {
        "fullname":"五台县",
        "id":"140922",
        "location":{
            "lat":38.728673000000001,
            "lng":113.25520400000001
        }
    },
    {
        "fullname":"代县",
        "id":"140923",
        "location":{
            "lat":39.066921999999998,
            "lng":112.960272
        }
    },
    {
        "fullname":"繁峙县",
        "id":"140924",
        "location":{
            "lat":39.188834999999997,
            "lng":113.26546399999999
        }
    },
    {
        "fullname":"宁武县",
        "id":"140925",
        "location":{
            "lat":39.001632000000001,
            "lng":112.304585
        }
    },
    {
        "fullname":"静乐县",
        "id":"140926",
        "location":{
            "lat":38.359546999999999,
            "lng":111.939441
        }
    },
    {
        "fullname":"神池县",
        "id":"140927",
        "location":{
            "lat":39.091079000000001,
            "lng":112.21099700000001
        }
    },
    {
        "fullname":"五寨县",
        "id":"140928",
        "location":{
            "lat":38.911110000000001,
            "lng":111.846808
        }
    },
    {
        "fullname":"岢岚县",
        "id":"140929",
        "location":{
            "lat":38.703989,
            "lng":111.572964
        }
    },
    {
        "fullname":"河曲县",
        "id":"140930",
        "location":{
            "lat":39.384520000000002,
            "lng":111.13824700000001
        }
    },
    {
        "fullname":"保德县",
        "id":"140931",
        "location":{
            "lat":39.022615999999999,
            "lng":111.085944
        }
    },
    {
        "fullname":"偏关县",
        "id":"140932",
        "location":{
            "lat":39.436917000000001,
            "lng":111.508922
        }
    },
    {
        "fullname":"原平市",
        "id":"140981",
        "location":{
            "lat":38.731411999999999,
            "lng":112.71102500000001
        }
    },
    {
        "fullname":"尧都区",
        "id":"141002",
        "location":{
            "lat":36.082462999999997,
            "lng":111.57879699999999
        }
    },
    {
        "fullname":"曲沃县",
        "id":"141021",
        "location":{
            "lat":35.641883,
            "lng":111.47578300000001
        }
    },
    {
        "fullname":"翼城县",
        "id":"141022",
        "location":{
            "lat":35.739463999999998,
            "lng":111.719044
        }
    },
    {
        "fullname":"襄汾县",
        "id":"141023",
        "location":{
            "lat":35.876292999999997,
            "lng":111.44172500000001
        }
    },
    {
        "fullname":"洪洞县",
        "id":"141024",
        "location":{
            "lat":36.254086999999998,
            "lng":111.67571
        }
    },
    {
        "fullname":"古县",
        "id":"141025",
        "location":{
            "lat":36.266767000000002,
            "lng":111.92031
        }
    },
    {
        "fullname":"安泽县",
        "id":"141026",
        "location":{
            "lat":36.147920999999997,
            "lng":112.250242
        }
    },
    {
        "fullname":"浮山县",
        "id":"141027",
        "location":{
            "lat":35.968124000000003,
            "lng":111.848883
        }
    },
    {
        "fullname":"吉县",
        "id":"141028",
        "location":{
            "lat":36.096832999999997,
            "lng":110.680513
        }
    },
    {
        "fullname":"乡宁县",
        "id":"141029",
        "location":{
            "lat":35.970834000000004,
            "lng":110.846585
        }
    },
    {
        "fullname":"大宁县",
        "id":"141030",
        "location":{
            "lat":36.465125999999998,
            "lng":110.752914
        }
    },
    {
        "fullname":"隰县",
        "id":"141031",
        "location":{
            "lat":36.693345000000001,
            "lng":110.940752
        }
    },
    {
        "fullname":"永和县",
        "id":"141032",
        "location":{
            "lat":36.759523999999999,
            "lng":110.631981
        }
    },
    {
        "fullname":"蒲县",
        "id":"141033",
        "location":{
            "lat":36.411830000000002,
            "lng":111.096457
        }
    },
    {
        "fullname":"汾西县",
        "id":"141034",
        "location":{
            "lat":36.652833000000001,
            "lng":111.563993
        }
    },
    {
        "fullname":"侯马市",
        "id":"141081",
        "location":{
            "lat":35.619104999999998,
            "lng":111.37200199999999
        }
    },
    {
        "fullname":"霍州市",
        "id":"141082",
        "location":{
            "lat":36.569046,
            "lng":111.755111
        }
    },
    {
        "fullname":"离石区",
        "id":"141102",
        "location":{
            "lat":37.517797000000002,
            "lng":111.150325
        }
    },
    {
        "fullname":"文水县",
        "id":"141121",
        "location":{
            "lat":37.438082999999999,
            "lng":112.02880399999999
        }
    },
    {
        "fullname":"交城县",
        "id":"141122",
        "location":{
            "lat":37.550893000000002,
            "lng":112.15628100000001
        }
    },
    {
        "fullname":"兴县",
        "id":"141123",
        "location":{
            "lat":38.461818000000001,
            "lng":111.127486
        }
    },
    {
        "fullname":"临县",
        "id":"141124",
        "location":{
            "lat":37.951008000000002,
            "lng":110.992712
        }
    },
    {
        "fullname":"柳林县",
        "id":"141125",
        "location":{
            "lat":37.429816000000002,
            "lng":110.888993
        }
    },
    {
        "fullname":"石楼县",
        "id":"141126",
        "location":{
            "lat":36.998460999999999,
            "lng":110.834712
        }
    },
    {
        "fullname":"岚县",
        "id":"141127",
        "location":{
            "lat":38.279586999999999,
            "lng":111.672156
        }
    },
    {
        "fullname":"方山县",
        "id":"141128",
        "location":{
            "lat":37.895017000000003,
            "lng":111.244309
        }
    },
    {
        "fullname":"中阳县",
        "id":"141129",
        "location":{
            "lat":37.357816,
            "lng":111.17884100000001
        }
    },
    {
        "fullname":"交口县",
        "id":"141130",
        "location":{
            "lat":36.982208999999997,
            "lng":111.18126599999999
        }
    },
    {
        "fullname":"孝义市",
        "id":"141181",
        "location":{
            "lat":37.146051,
            "lng":111.778935
        }
    },
    {
        "fullname":"汾阳市",
        "id":"141182",
        "location":{
            "lat":37.261493000000002,
            "lng":111.77083399999999
        }
    },
    {
        "fullname":"新城区",
        "id":"150102",
        "location":{
            "lat":40.858271000000002,
            "lng":111.665325
        }
    },
    {
        "fullname":"回民区",
        "id":"150103",
        "location":{
            "lat":40.808906,
            "lng":111.623485
        }
    },
    {
        "fullname":"玉泉区",
        "id":"150104",
        "location":{
            "lat":40.753053999999999,
            "lng":111.67415699999999
        }
    },
    {
        "fullname":"赛罕区",
        "id":"150105",
        "location":{
            "lat":40.792507999999998,
            "lng":111.701166
        }
    },
    {
        "fullname":"土默特左旗",
        "id":"150121",
        "location":{
            "lat":40.729044000000002,
            "lng":111.16373
        }
    },
    {
        "fullname":"托克托县",
        "id":"150122",
        "location":{
            "lat":40.277703000000002,
            "lng":111.193879
        }
    },
    {
        "fullname":"和林格尔县",
        "id":"150123",
        "location":{
            "lat":40.379226000000003,
            "lng":111.82169500000001
        }
    },
    {
        "fullname":"清水河县",
        "id":"150124",
        "location":{
            "lat":39.921224000000002,
            "lng":111.647351
        }
    },
    {
        "fullname":"武川县",
        "id":"150125",
        "location":{
            "lat":41.096449,
            "lng":111.45122000000001
        }
    },
    {
        "fullname":"东河区",
        "id":"150202",
        "location":{
            "lat":40.576259999999998,
            "lng":110.04400800000001
        }
    },
    {
        "fullname":"昆都仑区",
        "id":"150203",
        "location":{
            "lat":40.658074999999997,
            "lng":109.840249
        }
    },
    {
        "fullname":"青山区",
        "id":"150204",
        "location":{
            "lat":30.614181044399999,
            "lng":114.4540191963
        }
    },
    {
        "fullname":"石拐区",
        "id":"150205",
        "location":{
            "lat":40.677007000000003,
            "lng":110.061325
        }
    },
    {
        "fullname":"白云鄂博矿区",
        "id":"150206",
        "location":{
            "lat":41.769956000000001,
            "lng":109.973195
        }
    },
    {
        "fullname":"九原区",
        "id":"150207",
        "location":{
            "lat":40.611345999999998,
            "lng":109.968082
        }
    },
    {
        "fullname":"土默特右旗",
        "id":"150221",
        "location":{
            "lat":40.578252999999997,
            "lng":110.52783100000001
        }
    },
    {
        "fullname":"固阳县",
        "id":"150222",
        "location":{
            "lat":41.034756999999999,
            "lng":110.06005500000001
        }
    },
    {
        "fullname":"达尔罕茂明安联合旗",
        "id":"150223",
        "location":{
            "lat":41.698754000000001,
            "lng":110.43254399999999
        }
    },
    {
        "fullname":"海勃湾区",
        "id":"150302",
        "location":{
            "lat":39.690873000000003,
            "lng":106.8228
        }
    },
    {
        "fullname":"海南区",
        "id":"150303",
        "location":{
            "lat":39.441803,
            "lng":106.89147199999999
        }
    },
    {
        "fullname":"乌达区",
        "id":"150304",
        "location":{
            "lat":39.505609,
            "lng":106.726043
        }
    },
    {
        "fullname":"红山区",
        "id":"150402",
        "location":{
            "lat":42.296317000000002,
            "lng":118.95398900000001
        }
    },
    {
        "fullname":"元宝山区",
        "id":"150403",
        "location":{
            "lat":42.039602000000002,
            "lng":119.28847500000001
        }
    },
    {
        "fullname":"松山区",
        "id":"150404",
        "location":{
            "lat":42.299795000000003,
            "lng":118.916156
        }
    },
    {
        "fullname":"阿鲁科尔沁旗",
        "id":"150421",
        "location":{
            "lat":43.872397999999997,
            "lng":120.065533
        }
    },
    {
        "fullname":"巴林左旗",
        "id":"150422",
        "location":{
            "lat":43.961547000000003,
            "lng":119.362832
        }
    },
    {
        "fullname":"巴林右旗",
        "id":"150423",
        "location":{
            "lat":43.534171000000001,
            "lng":118.66423500000001
        }
    },
    {
        "fullname":"林西县",
        "id":"150424",
        "location":{
            "lat":43.617964999999998,
            "lng":118.05543400000001
        }
    },
    {
        "fullname":"克什克腾旗",
        "id":"150425",
        "location":{
            "lat":43.265048,
            "lng":117.545495
        }
    },
    {
        "fullname":"翁牛特旗",
        "id":"150426",
        "location":{
            "lat":42.936529,
            "lng":119.006187
        }
    },
    {
        "fullname":"喀喇沁旗",
        "id":"150428",
        "location":{
            "lat":41.927103000000002,
            "lng":118.70193399999999
        }
    },
    {
        "fullname":"宁城县",
        "id":"150429",
        "location":{
            "lat":41.600192999999997,
            "lng":119.32005599999999
        }
    },
    {
        "fullname":"敖汉旗",
        "id":"150430",
        "location":{
            "lat":42.290731000000001,
            "lng":119.921413
        }
    },
    {
        "fullname":"科尔沁区",
        "id":"150502",
        "location":{
            "lat":43.623133000000003,
            "lng":122.25545
        }
    },
    {
        "fullname":"科尔沁左翼中旗",
        "id":"150521",
        "location":{
            "lat":44.126606000000002,
            "lng":123.312202
        }
    },
    {
        "fullname":"科尔沁左翼后旗",
        "id":"150522",
        "location":{
            "lat":42.935105,
            "lng":122.35677
        }
    },
    {
        "fullname":"开鲁县",
        "id":"150523",
        "location":{
            "lat":43.601446000000003,
            "lng":121.319216
        }
    },
    {
        "fullname":"库伦旗",
        "id":"150524",
        "location":{
            "lat":42.735556000000003,
            "lng":121.81062900000001
        }
    },
    {
        "fullname":"奈曼旗",
        "id":"150525",
        "location":{
            "lat":42.867432999999998,
            "lng":120.657813
        }
    },
    {
        "fullname":"扎鲁特旗",
        "id":"150526",
        "location":{
            "lat":44.553922,
            "lng":120.892814
        }
    },
    {
        "fullname":"霍林郭勒市",
        "id":"150581",
        "location":{
            "lat":45.533597999999998,
            "lng":119.681242
        }
    },
    {
        "fullname":"东胜区",
        "id":"150602",
        "location":{
            "lat":39.823065999999997,
            "lng":109.963403
        }
    },
    {
        "fullname":"康巴什区",
        "id":"150603",
        "location":{
            "lat":39.607930000000003,
            "lng":109.858586
        }
    },
    {
        "fullname":"达拉特旗",
        "id":"150621",
        "location":{
            "lat":40.412765999999998,
            "lng":110.034133
        }
    },
    {
        "fullname":"准格尔旗",
        "id":"150622",
        "location":{
            "lat":39.864922999999997,
            "lng":111.239436
        }
    },
    {
        "fullname":"鄂托克前旗",
        "id":"150623",
        "location":{
            "lat":38.182402000000003,
            "lng":107.47732999999999
        }
    },
    {
        "fullname":"鄂托克旗",
        "id":"150624",
        "location":{
            "lat":39.089548999999998,
            "lng":107.975948
        }
    },
    {
        "fullname":"杭锦旗",
        "id":"150625",
        "location":{
            "lat":39.833078999999998,
            "lng":108.73591500000001
        }
    },
    {
        "fullname":"乌审旗",
        "id":"150626",
        "location":{
            "lat":38.604529999999997,
            "lng":108.819485
        }
    },
    {
        "fullname":"伊金霍洛旗",
        "id":"150627",
        "location":{
            "lat":39.565064,
            "lng":109.747435
        }
    },
    {
        "fullname":"海拉尔区",
        "id":"150702",
        "location":{
            "lat":49.234929000000001,
            "lng":119.82462
        }
    },
    {
        "fullname":"扎赉诺尔区",
        "id":"150703",
        "location":{
            "lat":49.511212999999998,
            "lng":117.669939
        }
    },
    {
        "fullname":"阿荣旗",
        "id":"150721",
        "location":{
            "lat":48.126553000000001,
            "lng":123.458943
        }
    },
    {
        "fullname":"莫力达瓦达斡尔族自治旗",
        "id":"150722",
        "location":{
            "lat":48.477727999999999,
            "lng":124.519023
        }
    },
    {
        "fullname":"鄂伦春自治旗",
        "id":"150723",
        "location":{
            "lat":50.591631,
            "lng":123.72583
        }
    },
    {
        "fullname":"鄂温克族自治旗",
        "id":"150724",
        "location":{
            "lat":49.146690999999997,
            "lng":119.755751
        }
    },
    {
        "fullname":"陈巴尔虎旗",
        "id":"150725",
        "location":{
            "lat":49.328916,
            "lng":119.424026
        }
    },
    {
        "fullname":"新巴尔虎左旗",
        "id":"150726",
        "location":{
            "lat":48.218269999999997,
            "lng":118.26978200000001
        }
    },
    {
        "fullname":"新巴尔虎右旗",
        "id":"150727",
        "location":{
            "lat":48.671864999999997,
            "lng":116.8237
        }
    },
    {
        "fullname":"满洲里市",
        "id":"150781",
        "location":{
            "lat":49.598619999999997,
            "lng":117.37913399999999
        }
    },
    {
        "fullname":"牙克石市",
        "id":"150782",
        "location":{
            "lat":49.285947,
            "lng":120.71163900000001
        }
    },
    {
        "fullname":"扎兰屯市",
        "id":"150783",
        "location":{
            "lat":48.028396000000001,
            "lng":122.70847500000001
        }
    },
    {
        "fullname":"额尔古纳市",
        "id":"150784",
        "location":{
            "lat":50.243102,
            "lng":120.18050599999999
        }
    },
    {
        "fullname":"根河市",
        "id":"150785",
        "location":{
            "lat":50.779758000000001,
            "lng":121.52016500000001
        }
    },
    {
        "fullname":"临河区",
        "id":"150802",
        "location":{
            "lat":40.750968999999998,
            "lng":107.363536
        }
    },
    {
        "fullname":"五原县",
        "id":"150821",
        "location":{
            "lat":41.088445999999998,
            "lng":108.267466
        }
    },
    {
        "fullname":"磴口县",
        "id":"150822",
        "location":{
            "lat":40.330534,
            "lng":107.00828799999999
        }
    },
    {
        "fullname":"乌拉特前旗",
        "id":"150823",
        "location":{
            "lat":40.737017999999999,
            "lng":108.652114
        }
    },
    {
        "fullname":"乌拉特中旗",
        "id":"150824",
        "location":{
            "lat":41.58813,
            "lng":108.51365300000001
        }
    },
    {
        "fullname":"乌拉特后旗",
        "id":"150825",
        "location":{
            "lat":41.084119999999999,
            "lng":107.074748
        }
    },
    {
        "fullname":"杭锦后旗",
        "id":"150826",
        "location":{
            "lat":40.886595999999997,
            "lng":107.151297
        }
    },
    {
        "fullname":"集宁区",
        "id":"150902",
        "location":{
            "lat":41.000742000000002,
            "lng":113.16897299999999
        }
    },
    {
        "fullname":"卓资县",
        "id":"150921",
        "location":{
            "lat":40.894680000000001,
            "lng":112.577698
        }
    },
    {
        "fullname":"化德县",
        "id":"150922",
        "location":{
            "lat":41.904122999999998,
            "lng":114.01029
        }
    },
    {
        "fullname":"商都县",
        "id":"150923",
        "location":{
            "lat":41.562176000000001,
            "lng":113.577778
        }
    },
    {
        "fullname":"兴和县",
        "id":"150924",
        "location":{
            "lat":40.872382000000002,
            "lng":113.833972
        }
    },
    {
        "fullname":"凉城县",
        "id":"150925",
        "location":{
            "lat":40.532358000000002,
            "lng":112.504243
        }
    },
    {
        "fullname":"察哈尔右翼前旗",
        "id":"150926",
        "location":{
            "lat":40.783807000000003,
            "lng":113.213095
        }
    },
    {
        "fullname":"察哈尔右翼中旗",
        "id":"150927",
        "location":{
            "lat":41.290770999999999,
            "lng":112.620836
        }
    },
    {
        "fullname":"察哈尔右翼后旗",
        "id":"150928",
        "location":{
            "lat":41.435937000000003,
            "lng":113.19150500000001
        }
    },
    {
        "fullname":"四子王旗",
        "id":"150929",
        "location":{
            "lat":41.533541999999997,
            "lng":111.70666300000001
        }
    },
    {
        "fullname":"丰镇市",
        "id":"150981",
        "location":{
            "lat":40.437021999999999,
            "lng":113.109875
        }
    },
    {
        "fullname":"乌兰浩特市",
        "id":"152201",
        "location":{
            "lat":46.072232999999997,
            "lng":122.093309
        }
    },
    {
        "fullname":"阿尔山市",
        "id":"152202",
        "location":{
            "lat":47.177439999999997,
            "lng":119.943577
        }
    },
    {
        "fullname":"科尔沁右翼前旗",
        "id":"152221",
        "location":{
            "lat":46.079664999999999,
            "lng":121.952639
        }
    },
    {
        "fullname":"科尔沁右翼中旗",
        "id":"152222",
        "location":{
            "lat":45.060727999999997,
            "lng":121.47635699999999
        }
    },
    {
        "fullname":"扎赉特旗",
        "id":"152223",
        "location":{
            "lat":46.723154000000001,
            "lng":122.899627
        }
    },
    {
        "fullname":"突泉县",
        "id":"152224",
        "location":{
            "lat":45.382280999999999,
            "lng":121.593951
        }
    },
    {
        "fullname":"二连浩特市",
        "id":"152501",
        "location":{
            "lat":43.642909000000003,
            "lng":111.950371
        }
    },
    {
        "fullname":"锡林浩特市",
        "id":"152502",
        "location":{
            "lat":43.933335,
            "lng":116.08590700000001
        }
    },
    {
        "fullname":"阿巴嘎旗",
        "id":"152522",
        "location":{
            "lat":44.022542999999999,
            "lng":114.950383
        }
    },
    {
        "fullname":"苏尼特左旗",
        "id":"152523",
        "location":{
            "lat":43.859718000000001,
            "lng":113.667171
        }
    },
    {
        "fullname":"苏尼特右旗",
        "id":"152524",
        "location":{
            "lat":42.742417000000003,
            "lng":112.641806
        }
    },
    {
        "fullname":"东乌珠穆沁旗",
        "id":"152525",
        "location":{
            "lat":45.497329000000001,
            "lng":116.97526000000001
        }
    },
    {
        "fullname":"西乌珠穆沁旗",
        "id":"152526",
        "location":{
            "lat":44.587746000000003,
            "lng":117.60866799999999
        }
    },
    {
        "fullname":"太仆寺旗",
        "id":"152527",
        "location":{
            "lat":41.876888999999998,
            "lng":115.28317300000001
        }
    },
    {
        "fullname":"镶黄旗",
        "id":"152528",
        "location":{
            "lat":42.232394999999997,
            "lng":113.847053
        }
    },
    {
        "fullname":"正镶白旗",
        "id":"152529",
        "location":{
            "lat":42.287492999999998,
            "lng":115.029748
        }
    },
    {
        "fullname":"正蓝旗",
        "id":"152530",
        "location":{
            "lat":42.241815000000003,
            "lng":115.991648
        }
    },
    {
        "fullname":"多伦县",
        "id":"152531",
        "location":{
            "lat":42.203454000000001,
            "lng":116.48554900000001
        }
    },
    {
        "fullname":"阿拉善左旗",
        "id":"152921",
        "location":{
            "lat":38.833840000000002,
            "lng":105.66604700000001
        }
    },
    {
        "fullname":"阿拉善右旗",
        "id":"152922",
        "location":{
            "lat":39.216185000000003,
            "lng":101.666917
        }
    },
    {
        "fullname":"额济纳旗",
        "id":"152923",
        "location":{
            "lat":41.953963000000002,
            "lng":101.05586099999999
        }
    },
    {
        "fullname":"和平区",
        "id":"210102",
        "location":{
            "lat":41.789766,
            "lng":123.420401
        }
    },
    {
        "fullname":"沈河区",
        "id":"210103",
        "location":{
            "lat":41.795687999999998,
            "lng":123.45884
        }
    },
    {
        "fullname":"大东区",
        "id":"210104",
        "location":{
            "lat":41.805292000000001,
            "lng":123.46982800000001
        }
    },
    {
        "fullname":"皇姑区",
        "id":"210105",
        "location":{
            "lat":41.824573999999998,
            "lng":123.441468
        }
    },
    {
        "fullname":"铁西区",
        "id":"210106",
        "location":{
            "lat":41.821720999999997,
            "lng":123.33478100000001
        }
    },
    {
        "fullname":"苏家屯区",
        "id":"210111",
        "location":{
            "lat":41.665152999999997,
            "lng":123.343937
        }
    },
    {
        "fullname":"浑南区",
        "id":"210112",
        "location":{
            "lat":41.714728999999998,
            "lng":123.449597
        }
    },
    {
        "fullname":"沈北新区",
        "id":"210113",
        "location":{
            "lat":41.913071000000002,
            "lng":123.584209
        }
    },
    {
        "fullname":"于洪区",
        "id":"210114",
        "location":{
            "lat":41.793925000000002,
            "lng":123.30806200000001
        }
    },
    {
        "fullname":"辽中区",
        "id":"210115",
        "location":{
            "lat":41.517448999999999,
            "lng":122.766159
        }
    },
    {
        "fullname":"康平县",
        "id":"210123",
        "location":{
            "lat":42.727249,
            "lng":123.343701
        }
    },
    {
        "fullname":"法库县",
        "id":"210124",
        "location":{
            "lat":42.501100000000001,
            "lng":123.440089
        }
    },
    {
        "fullname":"新民市",
        "id":"210181",
        "location":{
            "lat":41.985757,
            "lng":122.835964
        }
    },
    {
        "fullname":"中山区",
        "id":"210202",
        "location":{
            "lat":38.918357,
            "lng":121.64499600000001
        }
    },
    {
        "fullname":"西岗区",
        "id":"210203",
        "location":{
            "lat":38.914751000000003,
            "lng":121.612461
        }
    },
    {
        "fullname":"沙河口区",
        "id":"210204",
        "location":{
            "lat":38.904770999999997,
            "lng":121.594201
        }
    },
    {
        "fullname":"甘井子区",
        "id":"210211",
        "location":{
            "lat":38.952998000000001,
            "lng":121.525469
        }
    },
    {
        "fullname":"旅顺口区",
        "id":"210212",
        "location":{
            "lat":38.851717999999998,
            "lng":121.26188
        }
    },
    {
        "fullname":"金州区",
        "id":"210213",
        "location":{
            "lat":39.050210999999997,
            "lng":121.78251299999999
        }
    },
    {
        "fullname":"普兰店区",
        "id":"210214",
        "location":{
            "lat":39.391565,
            "lng":121.938299
        }
    },
    {
        "fullname":"长海县",
        "id":"210224",
        "location":{
            "lat":39.272779,
            "lng":122.588487
        }
    },
    {
        "fullname":"瓦房店市",
        "id":"210281",
        "location":{
            "lat":39.627009999999999,
            "lng":121.979463
        }
    },
    {
        "fullname":"庄河市",
        "id":"210283",
        "location":{
            "lat":39.680824999999999,
            "lng":122.965881
        }
    },
    {
        "fullname":"铁东区",
        "id":"210302",
        "location":{
            "lat":41.089578000000003,
            "lng":122.990888
        }
    },
    {
        "fullname":"铁西区",
        "id":"210303",
        "location":{
            "lat":41.119816,
            "lng":122.969634
        }
    },
    {
        "fullname":"立山区",
        "id":"210304",
        "location":{
            "lat":41.150190000000002,
            "lng":123.029071
        }
    },
    {
        "fullname":"千山区",
        "id":"210311",
        "location":{
            "lat":40.986493159799998,
            "lng":122.9520441327
        }
    },
    {
        "fullname":"台安县",
        "id":"210321",
        "location":{
            "lat":41.412866000000001,
            "lng":122.436037
        }
    },
    {
        "fullname":"岫岩满族自治县",
        "id":"210323",
        "location":{
            "lat":40.290995000000002,
            "lng":123.280933
        }
    },
    {
        "fullname":"海城市",
        "id":"210381",
        "location":{
            "lat":40.882548,
            "lng":122.685176
        }
    },
    {
        "fullname":"新抚区",
        "id":"210402",
        "location":{
            "lat":41.861922,
            "lng":123.91293
        }
    },
    {
        "fullname":"东洲区",
        "id":"210403",
        "location":{
            "lat":41.853000999999999,
            "lng":124.03849099999999
        }
    },
    {
        "fullname":"望花区",
        "id":"210404",
        "location":{
            "lat":41.853484000000002,
            "lng":123.784235
        }
    },
    {
        "fullname":"顺城区",
        "id":"210411",
        "location":{
            "lat":41.883594000000002,
            "lng":123.944896
        }
    },
    {
        "fullname":"抚顺县",
        "id":"210421",
        "location":{
            "lat":41.650660000000002,
            "lng":123.985178
        }
    },
    {
        "fullname":"新宾满族自治县",
        "id":"210422",
        "location":{
            "lat":41.734031000000002,
            "lng":125.03999399999999
        }
    },
    {
        "fullname":"清原满族自治县",
        "id":"210423",
        "location":{
            "lat":42.100803999999997,
            "lng":124.92402800000001
        }
    },
    {
        "fullname":"平山区",
        "id":"210502",
        "location":{
            "lat":41.299695,
            "lng":123.769036
        }
    },
    {
        "fullname":"溪湖区",
        "id":"210503",
        "location":{
            "lat":41.32931,
            "lng":123.76781699999999
        }
    },
    {
        "fullname":"明山区",
        "id":"210504",
        "location":{
            "lat":41.343623999999998,
            "lng":123.86174699999999
        }
    },
    {
        "fullname":"南芬区",
        "id":"210505",
        "location":{
            "lat":41.100273000000001,
            "lng":123.744822
        }
    },
    {
        "fullname":"本溪满族自治县",
        "id":"210521",
        "location":{
            "lat":41.301552999999998,
            "lng":124.119545
        }
    },
    {
        "fullname":"桓仁满族自治县",
        "id":"210522",
        "location":{
            "lat":41.267133999999999,
            "lng":125.361248
        }
    },
    {
        "fullname":"元宝区",
        "id":"210602",
        "location":{
            "lat":40.136549000000002,
            "lng":124.395577
        }
    },
    {
        "fullname":"振兴区",
        "id":"210603",
        "location":{
            "lat":40.129736000000001,
            "lng":124.38334999999999
        }
    },
    {
        "fullname":"振安区",
        "id":"210604",
        "location":{
            "lat":40.201698,
            "lng":124.47045199999999
        }
    },
    {
        "fullname":"宽甸满族自治县",
        "id":"210624",
        "location":{
            "lat":40.731318999999999,
            "lng":124.783674
        }
    },
    {
        "fullname":"东港市",
        "id":"210681",
        "location":{
            "lat":39.863193000000003,
            "lng":124.152581
        }
    },
    {
        "fullname":"凤城市",
        "id":"210682",
        "location":{
            "lat":40.452179999999998,
            "lng":124.066873
        }
    },
    {
        "fullname":"古塔区",
        "id":"210702",
        "location":{
            "lat":41.117379,
            "lng":121.128272
        }
    },
    {
        "fullname":"凌河区",
        "id":"210703",
        "location":{
            "lat":41.114843999999998,
            "lng":121.15099499999999
        }
    },
    {
        "fullname":"太和区",
        "id":"210711",
        "location":{
            "lat":41.109231999999999,
            "lng":121.10344499999999
        }
    },
    {
        "fullname":"黑山县",
        "id":"210726",
        "location":{
            "lat":41.653551999999998,
            "lng":122.126645
        }
    },
    {
        "fullname":"义县",
        "id":"210727",
        "location":{
            "lat":41.533552999999998,
            "lng":121.239558
        }
    },
    {
        "fullname":"凌海市",
        "id":"210781",
        "location":{
            "lat":41.160635999999997,
            "lng":121.35499
        }
    },
    {
        "fullname":"北镇市",
        "id":"210782",
        "location":{
            "lat":41.588656999999998,
            "lng":121.777503
        }
    },
    {
        "fullname":"站前区",
        "id":"210802",
        "location":{
            "lat":40.673062999999999,
            "lng":122.259058
        }
    },
    {
        "fullname":"西市区",
        "id":"210803",
        "location":{
            "lat":40.666707000000002,
            "lng":122.20643099999999
        }
    },
    {
        "fullname":"鲅鱼圈区",
        "id":"210804",
        "location":{
            "lat":40.226821000000001,
            "lng":122.121647
        }
    },
    {
        "fullname":"老边区",
        "id":"210811",
        "location":{
            "lat":40.671278999999998,
            "lng":122.307956
        }
    },
    {
        "fullname":"盖州市",
        "id":"210881",
        "location":{
            "lat":40.400258999999998,
            "lng":122.34845
        }
    },
    {
        "fullname":"大石桥市",
        "id":"210882",
        "location":{
            "lat":40.644482000000004,
            "lng":122.509006
        }
    },
    {
        "fullname":"海州区",
        "id":"210902",
        "location":{
            "lat":42.017794000000002,
            "lng":121.662594
        }
    },
    {
        "fullname":"新邱区",
        "id":"210903",
        "location":{
            "lat":42.087549000000003,
            "lng":121.792067
        }
    },
    {
        "fullname":"太平区",
        "id":"210904",
        "location":{
            "lat":42.010506999999997,
            "lng":121.678218
        }
    },
    {
        "fullname":"清河门区",
        "id":"210905",
        "location":{
            "lat":41.783099999999997,
            "lng":121.416105
        }
    },
    {
        "fullname":"细河区",
        "id":"210911",
        "location":{
            "lat":42.025830999999997,
            "lng":121.67978599999999
        }
    },
    {
        "fullname":"阜新蒙古族自治县",
        "id":"210921",
        "location":{
            "lat":42.065247999999997,
            "lng":121.757451
        }
    },
    {
        "fullname":"彰武县",
        "id":"210922",
        "location":{
            "lat":42.386263999999997,
            "lng":122.538563
        }
    },
    {
        "fullname":"白塔区",
        "id":"211002",
        "location":{
            "lat":41.270333000000001,
            "lng":123.174328
        }
    },
    {
        "fullname":"文圣区",
        "id":"211003",
        "location":{
            "lat":41.283403,
            "lng":123.231667
        }
    },
    {
        "fullname":"宏伟区",
        "id":"211004",
        "location":{
            "lat":41.217852000000001,
            "lng":123.196725
        }
    },
    {
        "fullname":"弓长岭区",
        "id":"211005",
        "location":{
            "lat":41.151786999999999,
            "lng":123.419567
        }
    },
    {
        "fullname":"太子河区",
        "id":"211011",
        "location":{
            "lat":41.321177952200003,
            "lng":123.0892965754
        }
    },
    {
        "fullname":"辽阳县",
        "id":"211021",
        "location":{
            "lat":41.206246,
            "lng":123.106426
        }
    },
    {
        "fullname":"灯塔市",
        "id":"211081",
        "location":{
            "lat":41.426537000000003,
            "lng":123.339398
        }
    },
    {
        "fullname":"双台子区",
        "id":"211102",
        "location":{
            "lat":41.212401999999997,
            "lng":122.07597
        }
    },
    {
        "fullname":"兴隆台区",
        "id":"211103",
        "location":{
            "lat":41.120260999999999,
            "lng":122.070685
        }
    },
    {
        "fullname":"大洼区",
        "id":"211104",
        "location":{
            "lat":41.002679000000001,
            "lng":122.082227
        }
    },
    {
        "fullname":"盘山县",
        "id":"211122",
        "location":{
            "lat":41.243366999999999,
            "lng":121.996408
        }
    },
    {
        "fullname":"银州区",
        "id":"211202",
        "location":{
            "lat":42.286574999999999,
            "lng":123.842472
        }
    },
    {
        "fullname":"清河区",
        "id":"211204",
        "location":{
            "lat":42.547161000000003,
            "lng":124.159758
        }
    },
    {
        "fullname":"铁岭县",
        "id":"211221",
        "location":{
            "lat":42.223394999999996,
            "lng":123.728933
        }
    },
    {
        "fullname":"西丰县",
        "id":"211223",
        "location":{
            "lat":42.738177999999998,
            "lng":124.727491
        }
    },
    {
        "fullname":"昌图县",
        "id":"211224",
        "location":{
            "lat":42.779333000000001,
            "lng":124.086628
        }
    },
    {
        "fullname":"调兵山市",
        "id":"211281",
        "location":{
            "lat":42.468007,
            "lng":123.56703899999999
        }
    },
    {
        "fullname":"开原市",
        "id":"211282",
        "location":{
            "lat":42.577789000000003,
            "lng":124.05186
        }
    },
    {
        "fullname":"双塔区",
        "id":"211302",
        "location":{
            "lat":41.566052999999997,
            "lng":120.453689
        }
    },
    {
        "fullname":"龙城区",
        "id":"211303",
        "location":{
            "lat":41.592294000000003,
            "lng":120.43773400000001
        }
    },
    {
        "fullname":"朝阳县",
        "id":"211321",
        "location":{
            "lat":41.497923,
            "lng":120.390001
        }
    },
    {
        "fullname":"建平县",
        "id":"211322",
        "location":{
            "lat":41.402890999999997,
            "lng":119.64328
        }
    },
    {
        "fullname":"喀喇沁左翼蒙古族自治县",
        "id":"211324",
        "location":{
            "lat":41.128149999999998,
            "lng":119.74122300000001
        }
    },
    {
        "fullname":"北票市",
        "id":"211381",
        "location":{
            "lat":41.801116999999998,
            "lng":120.771389
        }
    },
    {
        "fullname":"凌源市",
        "id":"211382",
        "location":{
            "lat":41.245131000000001,
            "lng":119.401405
        }
    },
    {
        "fullname":"连山区",
        "id":"211402",
        "location":{
            "lat":40.774783999999997,
            "lng":120.869157
        }
    },
    {
        "fullname":"龙港区",
        "id":"211403",
        "location":{
            "lat":40.735717000000001,
            "lng":120.894054
        }
    },
    {
        "fullname":"南票区",
        "id":"211404",
        "location":{
            "lat":41.107095999999999,
            "lng":120.749758
        }
    },
    {
        "fullname":"绥中县",
        "id":"211421",
        "location":{
            "lat":40.325575999999998,
            "lng":120.34432
        }
    },
    {
        "fullname":"建昌县",
        "id":"211422",
        "location":{
            "lat":40.824483999999998,
            "lng":119.836669
        }
    },
    {
        "fullname":"兴城市",
        "id":"211481",
        "location":{
            "lat":40.609990000000003,
            "lng":120.75666099999999
        }
    },
    {
        "fullname":"南关区",
        "id":"220102",
        "location":{
            "lat":43.863819999999997,
            "lng":125.350341
        }
    },
    {
        "fullname":"宽城区",
        "id":"220103",
        "location":{
            "lat":43.943522000000002,
            "lng":125.32661400000001
        }
    },
    {
        "fullname":"朝阳区",
        "id":"220104",
        "location":{
            "lat":43.833844999999997,
            "lng":125.288168
        }
    },
    {
        "fullname":"二道区",
        "id":"220105",
        "location":{
            "lat":43.865912000000002,
            "lng":125.37419
        }
    },
    {
        "fullname":"绿园区",
        "id":"220106",
        "location":{
            "lat":43.881047000000002,
            "lng":125.256214
        }
    },
    {
        "fullname":"双阳区",
        "id":"220112",
        "location":{
            "lat":43.525367000000003,
            "lng":125.66458299999999
        }
    },
    {
        "fullname":"九台区",
        "id":"220113",
        "location":{
            "lat":44.152245999999998,
            "lng":125.839557
        }
    },
    {
        "fullname":"农安县",
        "id":"220122",
        "location":{
            "lat":44.432386000000001,
            "lng":125.184031
        }
    },
    {
        "fullname":"榆树市",
        "id":"220182",
        "location":{
            "lat":44.840263,
            "lng":126.533126
        }
    },
    {
        "fullname":"德惠市",
        "id":"220183",
        "location":{
            "lat":44.521788000000001,
            "lng":125.72855199999999
        }
    },
    {
        "fullname":"公主岭市",
        "id":"220184",
        "location":{
            "lat":43.495285000000003,
            "lng":124.793682
        }
    },
    {
        "fullname":"昌邑区",
        "id":"220202",
        "location":{
            "lat":43.881895999999998,
            "lng":126.574414
        }
    },
    {
        "fullname":"龙潭区",
        "id":"220203",
        "location":{
            "lat":43.910742999999997,
            "lng":126.56213099999999
        }
    },
    {
        "fullname":"船营区",
        "id":"220204",
        "location":{
            "lat":43.833806000000003,
            "lng":126.540909
        }
    },
    {
        "fullname":"丰满区",
        "id":"220211",
        "location":{
            "lat":43.821192000000003,
            "lng":126.561351
        }
    },
    {
        "fullname":"永吉县",
        "id":"220221",
        "location":{
            "lat":43.672198000000002,
            "lng":126.497899
        }
    },
    {
        "fullname":"蛟河市",
        "id":"220281",
        "location":{
            "lat":43.724390999999997,
            "lng":127.344205
        }
    },
    {
        "fullname":"桦甸市",
        "id":"220282",
        "location":{
            "lat":42.972271999999997,
            "lng":126.746245
        }
    },
    {
        "fullname":"舒兰市",
        "id":"220283",
        "location":{
            "lat":44.405921999999997,
            "lng":126.965515
        }
    },
    {
        "fullname":"磐石市",
        "id":"220284",
        "location":{
            "lat":42.946607999999998,
            "lng":126.060328
        }
    },
    {
        "fullname":"铁西区",
        "id":"220302",
        "location":{
            "lat":43.146152000000001,
            "lng":124.346127
        }
    },
    {
        "fullname":"铁东区",
        "id":"220303",
        "location":{
            "lat":43.162663999999999,
            "lng":124.409852
        }
    },
    {
        "fullname":"梨树县",
        "id":"220322",
        "location":{
            "lat":43.306607999999997,
            "lng":124.335596
        }
    },
    {
        "fullname":"伊通满族自治县",
        "id":"220323",
        "location":{
            "lat":43.345753999999999,
            "lng":125.305393
        }
    },
    {
        "fullname":"双辽市",
        "id":"220382",
        "location":{
            "lat":43.518082999999997,
            "lng":123.502911
        }
    },
    {
        "fullname":"龙山区",
        "id":"220402",
        "location":{
            "lat":42.902194000000001,
            "lng":125.13703
        }
    },
    {
        "fullname":"西安区",
        "id":"220403",
        "location":{
            "lat":42.927252000000003,
            "lng":125.14948800000001
        }
    },
    {
        "fullname":"东丰县",
        "id":"220421",
        "location":{
            "lat":42.677253,
            "lng":125.53095999999999
        }
    },
    {
        "fullname":"东辽县",
        "id":"220422",
        "location":{
            "lat":42.925638999999997,
            "lng":124.99101
        }
    },
    {
        "fullname":"东昌区",
        "id":"220502",
        "location":{
            "lat":41.702871999999999,
            "lng":125.927187
        }
    },
    {
        "fullname":"二道江区",
        "id":"220503",
        "location":{
            "lat":41.773989,
            "lng":126.042546
        }
    },
    {
        "fullname":"通化县",
        "id":"220521",
        "location":{
            "lat":41.680135,
            "lng":125.758927
        }
    },
    {
        "fullname":"辉南县",
        "id":"220523",
        "location":{
            "lat":42.684705999999998,
            "lng":126.04600600000001
        }
    },
    {
        "fullname":"柳河县",
        "id":"220524",
        "location":{
            "lat":42.284865000000003,
            "lng":125.74469000000001
        }
    },
    {
        "fullname":"梅河口市",
        "id":"220581",
        "location":{
            "lat":42.539183000000001,
            "lng":125.711129
        }
    },
    {
        "fullname":"集安市",
        "id":"220582",
        "location":{
            "lat":41.125805,
            "lng":126.193172
        }
    },
    {
        "fullname":"浑江区",
        "id":"220602",
        "location":{
            "lat":41.945256000000001,
            "lng":126.415887
        }
    },
    {
        "fullname":"江源区",
        "id":"220605",
        "location":{
            "lat":42.056339000000001,
            "lng":126.59157399999999
        }
    },
    {
        "fullname":"抚松县",
        "id":"220621",
        "location":{
            "lat":42.221044999999997,
            "lng":127.449432
        }
    },
    {
        "fullname":"靖宇县",
        "id":"220622",
        "location":{
            "lat":42.388902000000002,
            "lng":126.81326199999999
        }
    },
    {
        "fullname":"长白朝鲜族自治县",
        "id":"220623",
        "location":{
            "lat":41.420673000000001,
            "lng":128.20063300000001
        }
    },
    {
        "fullname":"临江市",
        "id":"220681",
        "location":{
            "lat":41.811979000000001,
            "lng":126.918086
        }
    },
    {
        "fullname":"宁江区",
        "id":"220702",
        "location":{
            "lat":45.186311000000003,
            "lng":124.792537
        }
    },
    {
        "fullname":"前郭尔罗斯蒙古族自治县",
        "id":"220721",
        "location":{
            "lat":45.118186000000001,
            "lng":124.82343
        }
    },
    {
        "fullname":"长岭县",
        "id":"220722",
        "location":{
            "lat":44.276293000000003,
            "lng":123.96724399999999
        }
    },
    {
        "fullname":"乾安县",
        "id":"220723",
        "location":{
            "lat":45.003539000000004,
            "lng":124.040651
        }
    },
    {
        "fullname":"扶余市",
        "id":"220781",
        "location":{
            "lat":44.989057000000003,
            "lng":126.04953399999999
        }
    },
    {
        "fullname":"洮北区",
        "id":"220802",
        "location":{
            "lat":45.621544999999998,
            "lng":122.851105
        }
    },
    {
        "fullname":"镇赉县",
        "id":"220821",
        "location":{
            "lat":45.848194999999997,
            "lng":123.19967
        }
    },
    {
        "fullname":"通榆县",
        "id":"220822",
        "location":{
            "lat":44.813716999999997,
            "lng":123.087757
        }
    },
    {
        "fullname":"洮南市",
        "id":"220881",
        "location":{
            "lat":45.356848999999997,
            "lng":122.79845
        }
    },
    {
        "fullname":"大安市",
        "id":"220882",
        "location":{
            "lat":45.507004000000002,
            "lng":124.291032
        }
    },
    {
        "fullname":"延吉市",
        "id":"222401",
        "location":{
            "lat":42.891033999999998,
            "lng":129.507655
        }
    },
    {
        "fullname":"图们市",
        "id":"222402",
        "location":{
            "lat":42.968038999999997,
            "lng":129.843807
        }
    },
    {
        "fullname":"敦化市",
        "id":"222403",
        "location":{
            "lat":43.373016999999997,
            "lng":128.232595
        }
    },
    {
        "fullname":"珲春市",
        "id":"222404",
        "location":{
            "lat":42.862551000000003,
            "lng":130.36582899999999
        }
    },
    {
        "fullname":"龙井市",
        "id":"222405",
        "location":{
            "lat":42.767172000000002,
            "lng":129.42652899999999
        }
    },
    {
        "fullname":"和龙市",
        "id":"222406",
        "location":{
            "lat":42.546433999999998,
            "lng":129.010932
        }
    },
    {
        "fullname":"汪清县",
        "id":"222424",
        "location":{
            "lat":43.317214999999997,
            "lng":129.78513699999999
        }
    },
    {
        "fullname":"安图县",
        "id":"222426",
        "location":{
            "lat":43.111978000000001,
            "lng":128.899744
        }
    },
    {
        "fullname":"道里区",
        "id":"230102",
        "location":{
            "lat":45.755831999999998,
            "lng":126.616912
        }
    },
    {
        "fullname":"南岗区",
        "id":"230103",
        "location":{
            "lat":45.759967000000003,
            "lng":126.66882
        }
    },
    {
        "fullname":"道外区",
        "id":"230104",
        "location":{
            "lat":45.792350999999996,
            "lng":126.64909400000001
        }
    },
    {
        "fullname":"平房区",
        "id":"230108",
        "location":{
            "lat":45.597529000000002,
            "lng":126.63675000000001
        }
    },
    {
        "fullname":"松北区",
        "id":"230109",
        "location":{
            "lat":45.794991000000003,
            "lng":126.51660200000001
        }
    },
    {
        "fullname":"香坊区",
        "id":"230110",
        "location":{
            "lat":45.707842999999997,
            "lng":126.663005
        }
    },
    {
        "fullname":"呼兰区",
        "id":"230111",
        "location":{
            "lat":45.889557000000003,
            "lng":126.587704
        }
    },
    {
        "fullname":"阿城区",
        "id":"230112",
        "location":{
            "lat":45.548670999999999,
            "lng":126.957984
        }
    },
    {
        "fullname":"双城区",
        "id":"230113",
        "location":{
            "lat":45.382872999999996,
            "lng":126.31279000000001
        }
    },
    {
        "fullname":"依兰县",
        "id":"230123",
        "location":{
            "lat":46.325536,
            "lng":129.56777700000001
        }
    },
    {
        "fullname":"方正县",
        "id":"230124",
        "location":{
            "lat":45.851672999999998,
            "lng":128.82951299999999
        }
    },
    {
        "fullname":"宾县",
        "id":"230125",
        "location":{
            "lat":45.746313000000001,
            "lng":127.46637200000001
        }
    },
    {
        "fullname":"巴彦县",
        "id":"230126",
        "location":{
            "lat":46.086193999999999,
            "lng":127.403516
        }
    },
    {
        "fullname":"木兰县",
        "id":"230127",
        "location":{
            "lat":45.950166000000003,
            "lng":128.043237
        }
    },
    {
        "fullname":"通河县",
        "id":"230128",
        "location":{
            "lat":45.990214000000002,
            "lng":128.74628999999999
        }
    },
    {
        "fullname":"延寿县",
        "id":"230129",
        "location":{
            "lat":45.445956000000002,
            "lng":128.311071
        }
    },
    {
        "fullname":"尚志市",
        "id":"230183",
        "location":{
            "lat":45.209198999999998,
            "lng":128.009218
        }
    },
    {
        "fullname":"五常市",
        "id":"230184",
        "location":{
            "lat":44.932164,
            "lng":127.167501
        }
    },
    {
        "fullname":"龙沙区",
        "id":"230202",
        "location":{
            "lat":47.317103000000003,
            "lng":123.95844700000001
        }
    },
    {
        "fullname":"建华区",
        "id":"230203",
        "location":{
            "lat":47.354368999999998,
            "lng":123.955985
        }
    },
    {
        "fullname":"铁锋区",
        "id":"230204",
        "location":{
            "lat":47.340397000000003,
            "lng":123.978262
        }
    },
    {
        "fullname":"昂昂溪区",
        "id":"230205",
        "location":{
            "lat":47.154806000000001,
            "lng":123.822137
        }
    },
    {
        "fullname":"富拉尔基区",
        "id":"230206",
        "location":{
            "lat":47.208730000000003,
            "lng":123.62892600000001
        }
    },
    {
        "fullname":"碾子山区",
        "id":"230207",
        "location":{
            "lat":47.516613999999997,
            "lng":122.887548
        }
    },
    {
        "fullname":"梅里斯达斡尔族区",
        "id":"230208",
        "location":{
            "lat":47.309583000000003,
            "lng":123.752517
        }
    },
    {
        "fullname":"龙江县",
        "id":"230221",
        "location":{
            "lat":47.338512000000001,
            "lng":123.204953
        }
    },
    {
        "fullname":"依安县",
        "id":"230223",
        "location":{
            "lat":47.893442,
            "lng":125.306161
        }
    },
    {
        "fullname":"泰来县",
        "id":"230224",
        "location":{
            "lat":46.392983000000001,
            "lng":123.41670999999999
        }
    },
    {
        "fullname":"甘南县",
        "id":"230225",
        "location":{
            "lat":47.921697999999999,
            "lng":123.507935
        }
    },
    {
        "fullname":"富裕县",
        "id":"230227",
        "location":{
            "lat":47.774037999999997,
            "lng":124.474411
        }
    },
    {
        "fullname":"克山县",
        "id":"230229",
        "location":{
            "lat":48.037748000000001,
            "lng":125.875103
        }
    },
    {
        "fullname":"克东县",
        "id":"230230",
        "location":{
            "lat":48.041561999999999,
            "lng":126.24912399999999
        }
    },
    {
        "fullname":"拜泉县",
        "id":"230231",
        "location":{
            "lat":47.595860000000002,
            "lng":126.09905000000001
        }
    },
    {
        "fullname":"讷河市",
        "id":"230281",
        "location":{
            "lat":48.466828999999997,
            "lng":124.88293
        }
    },
    {
        "fullname":"鸡冠区",
        "id":"230302",
        "location":{
            "lat":45.304108999999997,
            "lng":130.980853
        }
    },
    {
        "fullname":"恒山区",
        "id":"230303",
        "location":{
            "lat":45.210993999999999,
            "lng":130.90461500000001
        }
    },
    {
        "fullname":"滴道区",
        "id":"230304",
        "location":{
            "lat":45.349068000000003,
            "lng":130.84419299999999
        }
    },
    {
        "fullname":"梨树区",
        "id":"230305",
        "location":{
            "lat":45.092046000000003,
            "lng":130.69699
        }
    },
    {
        "fullname":"城子河区",
        "id":"230306",
        "location":{
            "lat":45.338341999999997,
            "lng":131.011504
        }
    },
    {
        "fullname":"麻山区",
        "id":"230307",
        "location":{
            "lat":45.211719000000002,
            "lng":130.477476
        }
    },
    {
        "fullname":"鸡东县",
        "id":"230321",
        "location":{
            "lat":45.259847000000001,
            "lng":131.124123
        }
    },
    {
        "fullname":"虎林市",
        "id":"230381",
        "location":{
            "lat":45.763261999999997,
            "lng":132.93700200000001
        }
    },
    {
        "fullname":"密山市",
        "id":"230382",
        "location":{
            "lat":45.529482000000002,
            "lng":131.846824
        }
    },
    {
        "fullname":"向阳区",
        "id":"230402",
        "location":{
            "lat":47.342478,
            "lng":130.294331
        }
    },
    {
        "fullname":"工农区",
        "id":"230403",
        "location":{
            "lat":47.318719000000002,
            "lng":130.274473
        }
    },
    {
        "fullname":"南山区",
        "id":"230404",
        "location":{
            "lat":47.315185,
            "lng":130.286327
        }
    },
    {
        "fullname":"兴安区",
        "id":"230405",
        "location":{
            "lat":47.252805000000002,
            "lng":130.23928900000001
        }
    },
    {
        "fullname":"东山区",
        "id":"230406",
        "location":{
            "lat":47.338670999999998,
            "lng":130.31679099999999
        }
    },
    {
        "fullname":"兴山区",
        "id":"230407",
        "location":{
            "lat":47.357697999999999,
            "lng":130.30359799999999
        }
    },
    {
        "fullname":"萝北县",
        "id":"230421",
        "location":{
            "lat":47.579101000000001,
            "lng":130.82073399999999
        }
    },
    {
        "fullname":"绥滨县",
        "id":"230422",
        "location":{
            "lat":47.289521999999998,
            "lng":131.85286300000001
        }
    },
    {
        "fullname":"尖山区",
        "id":"230502",
        "location":{
            "lat":46.646082999999997,
            "lng":131.15837200000001
        }
    },
    {
        "fullname":"岭东区",
        "id":"230503",
        "location":{
            "lat":46.592610999999998,
            "lng":131.16536300000001
        }
    },
    {
        "fullname":"四方台区",
        "id":"230505",
        "location":{
            "lat":46.597143000000003,
            "lng":131.337636
        }
    },
    {
        "fullname":"宝山区",
        "id":"230506",
        "location":{
            "lat":46.577167000000003,
            "lng":131.401589
        }
    },
    {
        "fullname":"集贤县",
        "id":"230521",
        "location":{
            "lat":46.728448,
            "lng":131.14145199999999
        }
    },
    {
        "fullname":"友谊县",
        "id":"230522",
        "location":{
            "lat":46.767299000000001,
            "lng":131.80781500000001
        }
    },
    {
        "fullname":"宝清县",
        "id":"230523",
        "location":{
            "lat":46.327334999999998,
            "lng":132.19690700000001
        }
    },
    {
        "fullname":"饶河县",
        "id":"230524",
        "location":{
            "lat":46.797260000000001,
            "lng":134.01412500000001
        }
    },
    {
        "fullname":"萨尔图区",
        "id":"230602",
        "location":{
            "lat":46.629280999999999,
            "lng":125.13526899999999
        }
    },
    {
        "fullname":"龙凤区",
        "id":"230603",
        "location":{
            "lat":46.562368999999997,
            "lng":125.135093
        }
    },
    {
        "fullname":"让胡路区",
        "id":"230604",
        "location":{
            "lat":46.642567,
            "lng":124.889858
        }
    },
    {
        "fullname":"红岗区",
        "id":"230605",
        "location":{
            "lat":46.398567,
            "lng":124.891041
        }
    },
    {
        "fullname":"大同区",
        "id":"230606",
        "location":{
            "lat":46.039971999999999,
            "lng":124.81222099999999
        }
    },
    {
        "fullname":"肇州县",
        "id":"230621",
        "location":{
            "lat":45.699542999999998,
            "lng":125.268449
        }
    },
    {
        "fullname":"肇源县",
        "id":"230622",
        "location":{
            "lat":45.518982000000001,
            "lng":125.078311
        }
    },
    {
        "fullname":"林甸县",
        "id":"230623",
        "location":{
            "lat":47.171312999999998,
            "lng":124.863586
        }
    },
    {
        "fullname":"杜尔伯特蒙古族自治县",
        "id":"230624",
        "location":{
            "lat":46.862726000000002,
            "lng":124.44213999999999
        }
    },
    {
        "fullname":"伊美区",
        "id":"230717",
        "location":{
            "lat":47.728527,
            "lng":128.90699699999999
        }
    },
    {
        "fullname":"乌翠区",
        "id":"230718",
        "location":{
            "lat":47.726498999999997,
            "lng":128.66945799999999
        }
    },